{
  "Благоевград": {
    "Банско": {
      "2676": {
        "name": "Банско",
        "type": "гр.",
        "town_hall": "Банско",
        "phone_code": "07443",
        "latitude": 41.8404,
        "longitude": 23.4857,
        "post_codes": [
          "2770"
        ]
      },
      "17381": {
        "name": "Гостун",
        "type": "с.",
        "town_hall": "Гостун",
        "phone_code": "074409",
        "latitude": 41.7973,
        "longitude": 23.6904,
        "post_codes": [
          "2773"
        ]
      },
      "21498": {
        "name": "Добринище",
        "type": "с.",
        "town_hall": "Добринище",
        "phone_code": "07447",
        "latitude": 41.8202,
        "longitude": 23.5593,
        "post_codes": [
          "2777"
        ]
      },
      "39614": {
        "name": "Кремен",
        "type": "с.",
        "town_hall": "Кремен",
        "phone_code": "074407",
        "latitude": 41.745,
        "longitude": 23.6385,
        "post_codes": [
          "2771"
        ]
      },
      "47857": {
        "name": "Места",
        "type": "с.",
        "town_hall": "Места",
        "phone_code": "074409",
        "latitude": 41.7614,
        "longitude": 23.6729,
        "post_codes": [
          "2772"
        ]
      },
      "53059": {
        "name": "Обидим",
        "type": "с.",
        "town_hall": "Обидим",
        "phone_code": "074408",
        "latitude": 41.7875,
        "longitude": 23.6407,
        "post_codes": [
          "2776"
        ]
      },
      "54136": {
        "name": "Осеново",
        "type": "с.",
        "town_hall": "Осеново",
        "phone_code": "074409",
        "latitude": 41.7784,
        "longitude": 23.7255,
        "post_codes": [
          "2774"
        ]
      },
      "76090": {
        "name": "Филипово",
        "type": "с.",
        "town_hall": "Филипово",
        "phone_code": "074409",
        "latitude": 41.7639,
        "longitude": 23.6828,
        "post_codes": [
          "2775"
        ]
      }
    },
    "Белица": {
      "2107": {
        "name": "Бабяк",
        "type": "с.",
        "town_hall": "Бабяк",
        "phone_code": "074404",
        "latitude": 41.9552,
        "longitude": 23.6815,
        "post_codes": [
          "2784"
        ]
      },
      "3504": {
        "name": "Белица",
        "type": "гр.",
        "town_hall": "Белица",
        "phone_code": "07444",
        "latitude": 41.9508,
        "longitude": 23.5592,
        "post_codes": [
          "2780"
        ]
      },
      "41068": {
        "name": "Върхари",
        "type": "с.",
        "town_hall": "Златарица",
        "phone_code": "",
        "latitude": 41.5433,
        "longitude": 25.3796,
        "post_codes": [
          "2786"
        ]
      },
      "77596": {
        "name": "Горно Краище",
        "type": "с.",
        "town_hall": "Горно Краище",
        "phone_code": "074405",
        "latitude": 41.9007,
        "longitude": 23.5898,
        "post_codes": [
          "2781"
        ]
      },
      "15638": {
        "name": "Гълъбово",
        "type": "с.",
        "town_hall": "Гълъбово",
        "phone_code": "074404",
        "latitude": 42.1358,
        "longitude": 25.8651,
        "post_codes": [
          "2789"
        ]
      },
      "20064": {
        "name": "Дагоново",
        "type": "с.",
        "town_hall": "Дагоново",
        "phone_code": "074406",
        "latitude": 41.9544,
        "longitude": 23.5953,
        "post_codes": [
          "2779"
        ]
      },
      "27293": {
        "name": "Елешница",
        "type": "с.",
        "town_hall": "Елешница",
        "phone_code": "07446",
        "latitude": 41.8643,
        "longitude": 23.6167,
        "post_codes": [
          "2782"
        ]
      },
      "14521": {
        "name": "Златарица",
        "type": "с.",
        "town_hall": "Златарица",
        "phone_code": "",
        "latitude": 43.0496,
        "longitude": 25.8927,
        "post_codes": [
          "2783"
        ]
      },
      "39270": {
        "name": "Краище",
        "type": "с.",
        "town_hall": "Краище",
        "phone_code": "074405",
        "latitude": 41.9217,
        "longitude": 23.5883,
        "post_codes": [
          "2781"
        ]
      },
      "40453": {
        "name": "Кузьово",
        "type": "с.",
        "town_hall": "Кузьово",
        "phone_code": "074404",
        "latitude": 41.9387,
        "longitude": 23.6563,
        "post_codes": [
          "2788"
        ]
      },
      "44762": {
        "name": "Лютово",
        "type": "с.",
        "town_hall": "Лютово",
        "phone_code": "074404",
        "latitude": 41.9465,
        "longitude": 23.6319,
        "post_codes": [
          "2791"
        ]
      },
      "53998": {
        "name": "Орцево",
        "type": "с.",
        "town_hall": "Орцево",
        "phone_code": "074404",
        "latitude": 41.9669,
        "longitude": 23.7377,
        "post_codes": [
          "2785"
        ]
      },
      "59330": {
        "name": "Палатник",
        "type": "с.",
        "town_hall": "Палатник",
        "phone_code": "",
        "latitude": 41.9111,
        "longitude": 23.6717,
        "post_codes": [
          "2788"
        ]
      },
      "80649": {
        "name": "Черешово",
        "type": "с.",
        "town_hall": "Черешово",
        "phone_code": "074404",
        "latitude": 41.9491,
        "longitude": 23.7086,
        "post_codes": [
          "2787"
        ]
      }
    },
    "Благоевград": {
      "3664": {
        "name": "Бело поле",
        "type": "с.",
        "town_hall": "Бело поле",
        "phone_code": "",
        "latitude": 42.0319,
        "longitude": 23.0473,
        "post_codes": [
          "2709"
        ]
      },
      "4217": {
        "name": "Бистрица",
        "type": "с.",
        "town_hall": "Бистрица",
        "phone_code": "",
        "latitude": 42.0548,
        "longitude": 23.1801,
        "post_codes": [
          "2724"
        ]
      },
      "4279": {
        "name": "Благоевград",
        "type": "гр.",
        "town_hall": "Благоевград",
        "phone_code": "073",
        "latitude": 42.0209,
        "longitude": 23.0943,
        "post_codes": [
          "2700",
          "2702",
          "2703",
          "2704"
        ]
      },
      "7168": {
        "name": "Бучино",
        "type": "с.",
        "town_hall": "Бучино",
        "phone_code": "",
        "latitude": 42.0462,
        "longitude": 23.0229,
        "post_codes": [
          "2742"
        ]
      },
      "7377": {
        "name": "Българчево",
        "type": "с.",
        "town_hall": "Българчево",
        "phone_code": "07415",
        "latitude": 42.0241,
        "longitude": 23.0325,
        "post_codes": [
          "2746"
        ]
      },
      "14204": {
        "name": "Габрово",
        "type": "с.",
        "town_hall": "Габрово",
        "phone_code": "07414",
        "latitude": 41.8979,
        "longitude": 22.9435,
        "post_codes": [
          "2747"
        ]
      },
      "17004": {
        "name": "Горно Хърсово",
        "type": "с.",
        "town_hall": "Горно Хърсово",
        "phone_code": "073",
        "latitude": 42.0179,
        "longitude": 23.1788,
        "post_codes": [
          "2727"
        ]
      },
      "20328": {
        "name": "Дебочица",
        "type": "с.",
        "town_hall": "Дебочица",
        "phone_code": "07414",
        "latitude": 41.8683,
        "longitude": 22.9537,
        "post_codes": [
          "2748"
        ]
      },
      "20540": {
        "name": "Делвино",
        "type": "с.",
        "town_hall": "Марулево",
        "phone_code": "073",
        "latitude": 42.0212,
        "longitude": 23.1332,
        "post_codes": [
          "2728"
        ]
      },
      "23652": {
        "name": "Дренково",
        "type": "с.",
        "town_hall": "Дренково",
        "phone_code": "07418",
        "latitude": 42.0253,
        "longitude": 22.9315,
        "post_codes": [
          "2739"
        ]
      },
      "24367": {
        "name": "Дъбрава",
        "type": "с.",
        "town_hall": "Дъбрава",
        "phone_code": "073",
        "latitude": 42.0484,
        "longitude": 23.1318,
        "post_codes": [
          "2723"
        ]
      },
      "27231": {
        "name": "Еленово",
        "type": "с.",
        "town_hall": "Еленово",
        "phone_code": "073",
        "latitude": 42.001,
        "longitude": 23.1274,
        "post_codes": [
          "2726"
        ]
      },
      "30702": {
        "name": "Зелендол",
        "type": "с.",
        "town_hall": "Зелендол",
        "phone_code": "07415",
        "latitude": 42.0093,
        "longitude": 23.0319,
        "post_codes": [
          "2745"
        ]
      },
      "134": {
        "name": "Изгрев",
        "type": "с.",
        "town_hall": "Изгрев",
        "phone_code": "073",
        "latitude": 42.0018,
        "longitude": 23.1056,
        "post_codes": [
          "2711"
        ]
      },
      "37263": {
        "name": "Клисура",
        "type": "с.",
        "town_hall": "Клисура",
        "phone_code": "07418",
        "latitude": 42.0096,
        "longitude": 22.9161,
        "post_codes": [
          "2738"
        ]
      },
      "43520": {
        "name": "Лешко",
        "type": "с.",
        "town_hall": "Лешко",
        "phone_code": "07414",
        "latitude": 41.9325,
        "longitude": 22.9752,
        "post_codes": [
          "2749"
        ]
      },
      "43863": {
        "name": "Лисия",
        "type": "с.",
        "town_hall": "Бучино",
        "phone_code": "073",
        "latitude": 42.0618,
        "longitude": 22.9366,
        "post_codes": [
          "2743"
        ]
      },
      "68792": {
        "name": "Логодаж",
        "type": "с.",
        "town_hall": "Логодаж",
        "phone_code": "07418",
        "latitude": 41.9927,
        "longitude": 22.934,
        "post_codes": [
          "2737"
        ]
      },
      "47370": {
        "name": "Марулево",
        "type": "с.",
        "town_hall": "Марулево",
        "phone_code": "",
        "latitude": 41.995,
        "longitude": 23.1512,
        "post_codes": [
          "2725"
        ]
      },
      "49179": {
        "name": "Мощанец",
        "type": "с.",
        "town_hall": "Мощанец",
        "phone_code": "073",
        "latitude": 41.9668,
        "longitude": 23.0727,
        "post_codes": [
          "2729"
        ]
      },
      "53031": {
        "name": "Обел",
        "type": "с.",
        "town_hall": "Клисура",
        "phone_code": "",
        "latitude": 41.9747,
        "longitude": 22.9092,
        "post_codes": [
          "2738"
        ]
      },
      "55107": {
        "name": "Падеш",
        "type": "с.",
        "town_hall": "Падеш",
        "phone_code": "07414",
        "latitude": 41.9317,
        "longitude": 23.0022,
        "post_codes": [
          "2747"
        ]
      },
      "57159": {
        "name": "Покровник",
        "type": "с.",
        "town_hall": "Покровник",
        "phone_code": "073",
        "latitude": 41.9759,
        "longitude": 23.0529,
        "post_codes": [
          "2708"
        ]
      },
      "62699": {
        "name": "Рилци",
        "type": "с.",
        "town_hall": "Рилци",
        "phone_code": "073",
        "latitude": 42.0401,
        "longitude": 23.0656,
        "post_codes": [
          "2710"
        ]
      },
      "66055": {
        "name": "Селище",
        "type": "с.",
        "town_hall": "Селище",
        "phone_code": "07413",
        "latitude": 41.9964,
        "longitude": 22.9988,
        "post_codes": [
          "2744"
        ]
      },
      "78464": {
        "name": "Церово",
        "type": "с.",
        "town_hall": "Церово",
        "phone_code": "073",
        "latitude": 42.3578,
        "longitude": 24.0522,
        "post_codes": [
          "2722"
        ]
      }
    },
    "Гоце Делчев": {
      "2600": {
        "name": "Баничан",
        "type": "с.",
        "town_hall": "Баничан",
        "phone_code": "07525",
        "latitude": 41.6207,
        "longitude": 23.7375,
        "post_codes": [
          "2905"
        ]
      },
      "5606": {
        "name": "Борово",
        "type": "с.",
        "town_hall": "Борово",
        "phone_code": "0751",
        "latitude": 43.4842,
        "longitude": 25.8056,
        "post_codes": [
          "2904"
        ]
      },
      "6306": {
        "name": "Брезница",
        "type": "с.",
        "town_hall": "Брезница",
        "phone_code": "07529",
        "latitude": 41.6714,
        "longitude": 23.6618,
        "post_codes": [
          "2972"
        ]
      },
      "7003": {
        "name": "Буково",
        "type": "с.",
        "town_hall": "Буково",
        "phone_code": "07532",
        "latitude": 41.712,
        "longitude": 23.714,
        "post_codes": [
          "2915"
        ]
      },
      "17347": {
        "name": "Господинци",
        "type": "с.",
        "town_hall": "Господинци",
        "phone_code": "07525",
        "latitude": 41.6579,
        "longitude": 23.7299,
        "post_codes": [
          "2914"
        ]
      },
      "17395": {
        "name": "Гоце Делчев",
        "type": "гр.",
        "town_hall": "Гоце Делчев",
        "phone_code": "0751",
        "latitude": 41.5728,
        "longitude": 23.7283,
        "post_codes": [
          "2900"
        ]
      },
      "20585": {
        "name": "Делчево",
        "type": "с.",
        "town_hall": "Делчево",
        "phone_code": "",
        "latitude": 41.5556,
        "longitude": 23.6968,
        "post_codes": [
          "2917"
        ]
      },
      "21680": {
        "name": "Добротино",
        "type": "с.",
        "town_hall": "Гоце Делчев",
        "phone_code": "0751",
        "latitude": 41.5864,
        "longitude": 23.68,
        "post_codes": [
          "2919"
        ]
      },
      "23460": {
        "name": "Драгостин",
        "type": "с.",
        "town_hall": "Гоце Делчев",
        "phone_code": "",
        "latitude": 41.5745,
        "longitude": 23.6973,
        "post_codes": [
          "2916"
        ]
      },
      "38666": {
        "name": "Корница",
        "type": "с.",
        "town_hall": "Корница",
        "phone_code": "07520",
        "latitude": 41.64,
        "longitude": 23.6772,
        "post_codes": [
          "2970"
        ]
      },
      "44416": {
        "name": "Лъжница",
        "type": "с.",
        "town_hall": "Лъжница",
        "phone_code": "07520",
        "latitude": 41.6191,
        "longitude": 23.677,
        "post_codes": [
          "2971"
        ]
      },
      "49432": {
        "name": "Мусомища",
        "type": "с.",
        "town_hall": "Мусомища",
        "phone_code": "0751",
        "latitude": 41.5534,
        "longitude": 23.7476,
        "post_codes": [
          "2920"
        ]
      },
      "68391": {
        "name": "Средна",
        "type": "с.",
        "town_hall": "Гоце Делчев",
        "phone_code": "",
        "latitude": 41.5806,
        "longitude": 23.6828,
        "post_codes": [
          "2918"
        ]
      }
    },
    "Гърмен": {
      "2381": {
        "name": "Балдево",
        "type": "с.",
        "town_hall": "Балдево",
        "phone_code": "07523",
        "latitude": 41.6287,
        "longitude": 23.7695,
        "post_codes": [
          "2948"
        ]
      },
      "16763": {
        "name": "Горно Дряново",
        "type": "с.",
        "town_hall": "Горно Дряново",
        "phone_code": "07527",
        "latitude": 41.6524,
        "longitude": 23.8267,
        "post_codes": [
          "2963"
        ]
      },
      "18366": {
        "name": "Гърмен",
        "type": "с.",
        "town_hall": "Гърмен",
        "phone_code": "07523",
        "latitude": 41.5982,
        "longitude": 23.7986,
        "post_codes": [
          "2960"
        ]
      },
      "20331": {
        "name": "Дебрен",
        "type": "с.",
        "town_hall": "Дебрен",
        "phone_code": "07523",
        "latitude": 41.5818,
        "longitude": 23.8229,
        "post_codes": [
          "2961"
        ]
      },
      "22616": {
        "name": "Долно Дряново",
        "type": "с.",
        "town_hall": "Долно Дряново",
        "phone_code": "07531",
        "latitude": 41.5879,
        "longitude": 23.8955,
        "post_codes": [
          "2944"
        ]
      },
      "24267": {
        "name": "Дъбница",
        "type": "с.",
        "town_hall": "Дъбница",
        "phone_code": "07522",
        "latitude": 41.5708,
        "longitude": 23.8342,
        "post_codes": [
          "2940"
        ]
      },
      "37472": {
        "name": "Ковачевица",
        "type": "с.",
        "town_hall": "Ковачевица",
        "phone_code": "07527",
        "latitude": 41.6843,
        "longitude": 23.8264,
        "post_codes": [
          "2969"
        ]
      },
      "40138": {
        "name": "Крушево",
        "type": "с.",
        "town_hall": "Крушево",
        "phone_code": "07531",
        "latitude": 41.602,
        "longitude": 23.8779,
        "post_codes": [
          "2945"
        ]
      },
      "43606": {
        "name": "Лещен",
        "type": "с.",
        "town_hall": "Горно Дряново",
        "phone_code": "07527",
        "latitude": 41.6367,
        "longitude": 23.8289,
        "post_codes": [
          "2962"
        ]
      },
      "47408": {
        "name": "Марчево",
        "type": "с.",
        "town_hall": "Марчево",
        "phone_code": "07523",
        "latitude": 41.6106,
        "longitude": 23.796,
        "post_codes": [
          "2949"
        ]
      },
      "53326": {
        "name": "Огняново",
        "type": "с.",
        "town_hall": "Огняново",
        "phone_code": "07523",
        "latitude": 41.6121,
        "longitude": 23.7876,
        "post_codes": [
          "2947"
        ]
      },
      "53727": {
        "name": "Ореше",
        "type": "с.",
        "town_hall": "Ореше",
        "phone_code": "07531",
        "latitude": 41.6231,
        "longitude": 23.8817,
        "post_codes": [
          "2943"
        ]
      },
      "54184": {
        "name": "Осиково",
        "type": "с.",
        "town_hall": "Осиково",
        "phone_code": "07533",
        "latitude": 41.696,
        "longitude": 23.777,
        "post_codes": [
          "2965"
        ]
      },
      "62640": {
        "name": "Рибново",
        "type": "с.",
        "town_hall": "Рибново",
        "phone_code": "07526",
        "latitude": 41.7184,
        "longitude": 23.7633,
        "post_codes": [
          "2967"
        ]
      },
      "66874": {
        "name": "Скребатно",
        "type": "с.",
        "town_hall": "Скребатно",
        "phone_code": "07523",
        "latitude": 41.6602,
        "longitude": 23.797,
        "post_codes": [
          "2964"
        ]
      },
      "77222": {
        "name": "Хвостяне",
        "type": "с.",
        "town_hall": "Хвостяне",
        "phone_code": "07522",
        "latitude": 41.5456,
        "longitude": 23.8474,
        "post_codes": [
          "2942"
        ]
      }
    },
    "Кресна": {
      "6834": {
        "name": "Будилци",
        "type": "с.",
        "town_hall": "Сливница",
        "phone_code": "",
        "latitude": 41.6912,
        "longitude": 23.1194,
        "post_codes": [
          "2844"
        ]
      },
      "11569": {
        "name": "Влахи",
        "type": "с.",
        "town_hall": "Кресна",
        "phone_code": "",
        "latitude": 41.7382,
        "longitude": 23.2309,
        "post_codes": [
          "2841"
        ]
      },
      "16136": {
        "name": "Горна Брезница",
        "type": "с.",
        "town_hall": "Горна Брезница",
        "phone_code": "074328",
        "latitude": 41.7436,
        "longitude": 23.1162,
        "post_codes": [
          "2842"
        ]
      },
      "22068": {
        "name": "Долна Градешница",
        "type": "с.",
        "town_hall": "Долна Градешница",
        "phone_code": "07433",
        "latitude": 41.6818,
        "longitude": 23.184,
        "post_codes": [
          "2843"
        ]
      },
      "27098": {
        "name": "Езерец",
        "type": "с.",
        "town_hall": "Ощава",
        "phone_code": "",
        "latitude": 43.5949,
        "longitude": 28.5362,
        "post_codes": [
          "2846"
        ]
      },
      "14492": {
        "name": "Кресна",
        "type": "гр.",
        "town_hall": "Кресна",
        "phone_code": "07433",
        "latitude": 41.7205,
        "longitude": 23.1664,
        "post_codes": [
          "2840"
        ]
      },
      "52163": {
        "name": "Ново село",
        "type": "с.",
        "town_hall": "Кресна",
        "phone_code": "",
        "latitude": 41.7271,
        "longitude": 23.1675,
        "post_codes": [
          "2847"
        ]
      },
      "54537": {
        "name": "Ощава",
        "type": "с.",
        "town_hall": "Ощава",
        "phone_code": "074337",
        "latitude": 41.7901,
        "longitude": 23.2267,
        "post_codes": [
          "2847"
        ]
      },
      "67369": {
        "name": "Сливница",
        "type": "с.",
        "town_hall": "Сливница",
        "phone_code": "07433",
        "latitude": 41.6922,
        "longitude": 23.1653,
        "post_codes": [
          "2844"
        ]
      },
      "39699": {
        "name": "Стара Кресна",
        "type": "с.",
        "town_hall": "Стара Кресна",
        "phone_code": "074337",
        "latitude": 41.7898,
        "longitude": 23.181,
        "post_codes": [
          "2845"
        ]
      }
    },
    "Петрич": {
      "2806": {
        "name": "Баскалци",
        "type": "с.",
        "town_hall": "Баскалци",
        "phone_code": "",
        "latitude": 41.4749,
        "longitude": 23.0068,
        "post_codes": [
          "2883"
        ]
      },
      "3294": {
        "name": "Беласица",
        "type": "с.",
        "town_hall": "Беласица",
        "phone_code": "07423",
        "latitude": 41.3662,
        "longitude": 23.1346,
        "post_codes": [
          "2881"
        ]
      },
      "66322": {
        "name": "Богородица",
        "type": "с.",
        "town_hall": "Богородица",
        "phone_code": "07424",
        "latitude": 41.5111,
        "longitude": 23.1901,
        "post_codes": [
          "2876"
        ]
      },
      "5596": {
        "name": "Боровичене",
        "type": "с.",
        "town_hall": "Боровичене",
        "phone_code": "074204",
        "latitude": 41.4172,
        "longitude": 23.0087,
        "post_codes": [
          "2884"
        ]
      },
      "11358": {
        "name": "Вишлене",
        "type": "с.",
        "town_hall": "Вишлене",
        "phone_code": "07427",
        "latitude": 41.4383,
        "longitude": 23.0627,
        "post_codes": [
          "2895"
        ]
      },
      "12036": {
        "name": "Волно",
        "type": "с.",
        "town_hall": "Волно",
        "phone_code": "",
        "latitude": 41.4794,
        "longitude": 23.0269,
        "post_codes": [
          "2886"
        ]
      },
      "14091": {
        "name": "Габрене",
        "type": "с.",
        "town_hall": "Габрене",
        "phone_code": "07428",
        "latitude": 41.3678,
        "longitude": 22.973,
        "post_codes": [
          "2898"
        ]
      },
      "14581": {
        "name": "Гега",
        "type": "с.",
        "town_hall": "Гега",
        "phone_code": "074204",
        "latitude": 41.4501,
        "longitude": 23.0038,
        "post_codes": [
          "2882"
        ]
      },
      "58390": {
        "name": "Генерал Тодоров",
        "type": "с.",
        "town_hall": "Генерал Тодоров",
        "phone_code": "074207",
        "latitude": 41.4549,
        "longitude": 23.2868,
        "post_codes": [
          "2873"
        ]
      },
      "17302": {
        "name": "Горчево",
        "type": "с.",
        "town_hall": "Долене",
        "phone_code": "",
        "latitude": 41.451,
        "longitude": 23.0276,
        "post_codes": [
          "2882"
        ]
      },
      "18472": {
        "name": "Гюргево",
        "type": "с.",
        "town_hall": "Дреново",
        "phone_code": "",
        "latitude": 41.4752,
        "longitude": 23.1521,
        "post_codes": [
          "2875"
        ]
      },
      "21885": {
        "name": "Долене",
        "type": "с.",
        "town_hall": "Долене",
        "phone_code": "074204",
        "latitude": 41.4462,
        "longitude": 23.0306,
        "post_codes": [
          "2887"
        ]
      },
      "22143": {
        "name": "Долна Крушица",
        "type": "с.",
        "town_hall": "Долна Крушица",
        "phone_code": "074204",
        "latitude": 41.4248,
        "longitude": 22.984,
        "post_codes": [
          "2888"
        ]
      },
      "22246": {
        "name": "Долна Рибница",
        "type": "с.",
        "town_hall": "Долна Рибница",
        "phone_code": "074277",
        "latitude": 41.4482,
        "longitude": 23.0957,
        "post_codes": [
          "2892"
        ]
      },
      "22842": {
        "name": "Долно Спанчево",
        "type": "с.",
        "town_hall": "Долно Спанчево",
        "phone_code": "07425",
        "latitude": 41.4232,
        "longitude": 23.3798,
        "post_codes": [
          "2869"
        ]
      },
      "23488": {
        "name": "Драгуш",
        "type": "с.",
        "town_hall": "Драгуш",
        "phone_code": "07424",
        "latitude": 41.5174,
        "longitude": 23.0916,
        "post_codes": [
          "2875"
        ]
      },
      "23563": {
        "name": "Дрангово",
        "type": "с.",
        "town_hall": "Дрангово",
        "phone_code": "074208",
        "latitude": 41.4164,
        "longitude": 23.2874,
        "post_codes": [
          "2859"
        ]
      },
      "23683": {
        "name": "Дреновица",
        "type": "с.",
        "town_hall": "Вишлене",
        "phone_code": "",
        "latitude": 41.4141,
        "longitude": 23.0708,
        "post_codes": [
          "2895"
        ]
      },
      "23697": {
        "name": "Дреново",
        "type": "с.",
        "town_hall": "Дреново",
        "phone_code": "07424",
        "latitude": 41.5107,
        "longitude": 23.1568,
        "post_codes": [
          "2876"
        ]
      },
      "30315": {
        "name": "Занога",
        "type": "с.",
        "town_hall": "Драгуш",
        "phone_code": "",
        "latitude": 41.5281,
        "longitude": 23.0609,
        "post_codes": [
          "2875"
        ]
      },
      "31317": {
        "name": "Зойчене",
        "type": "с.",
        "town_hall": "Зойчене",
        "phone_code": "",
        "latitude": 41.4576,
        "longitude": 23.0191,
        "post_codes": [
          "2882"
        ]
      },
      "32086": {
        "name": "Иваново",
        "type": "с.",
        "town_hall": "Крънджилица",
        "phone_code": "",
        "latitude": 41.533,
        "longitude": 23.0686,
        "post_codes": [
          "2875"
        ]
      },
      "35081": {
        "name": "Кавракирово",
        "type": "с.",
        "town_hall": "Кавракирово",
        "phone_code": "07427",
        "latitude": 41.4351,
        "longitude": 23.166,
        "post_codes": [
          "2889"
        ]
      },
      "35688": {
        "name": "Камена",
        "type": "с.",
        "town_hall": "Камена",
        "phone_code": "07423",
        "latitude": 41.3641,
        "longitude": 23.0707,
        "post_codes": [
          "2878"
        ]
      },
      "36083": {
        "name": "Капатово",
        "type": "с.",
        "town_hall": "Капатово",
        "phone_code": "074201",
        "latitude": 41.4631,
        "longitude": 23.3571,
        "post_codes": [
          "2872"
        ]
      },
      "37143": {
        "name": "Кладенци",
        "type": "с.",
        "town_hall": "Струмешница",
        "phone_code": "",
        "latitude": 41.4241,
        "longitude": 23.0412,
        "post_codes": [
          "2895"
        ]
      },
      "37349": {
        "name": "Ключ",
        "type": "с.",
        "town_hall": "Ключ",
        "phone_code": "074202",
        "latitude": 41.364,
        "longitude": 23.0172,
        "post_codes": [
          "2899"
        ]
      },
      "37989": {
        "name": "Коларово",
        "type": "с.",
        "town_hall": "Коларово",
        "phone_code": "07423",
        "latitude": 41.3649,
        "longitude": 23.1096,
        "post_codes": [
          "2880"
        ]
      },
      "39935": {
        "name": "Кромидово",
        "type": "с.",
        "town_hall": "Кромидово",
        "phone_code": "074201",
        "latitude": 41.4573,
        "longitude": 23.3637,
        "post_codes": [
          "2871"
        ]
      },
      "40302": {
        "name": "Крънджилица",
        "type": "с.",
        "town_hall": "Крънджилица",
        "phone_code": "07424",
        "latitude": 41.5395,
        "longitude": 23.0576,
        "post_codes": [
          "2875"
        ]
      },
      "40508": {
        "name": "Кукурахцево",
        "type": "с.",
        "town_hall": "Кукурахцево",
        "phone_code": "",
        "latitude": 41.4696,
        "longitude": 22.9958,
        "post_codes": [
          "2882"
        ]
      },
      "40539": {
        "name": "Кулата",
        "type": "с.",
        "town_hall": "Кулата",
        "phone_code": "07425",
        "latitude": 41.3876,
        "longitude": 23.3633,
        "post_codes": [
          "2868"
        ]
      },
      "40912": {
        "name": "Кърналово",
        "type": "с.",
        "town_hall": "Кърналово",
        "phone_code": "07424",
        "latitude": 41.4622,
        "longitude": 23.2208,
        "post_codes": [
          "2860"
        ]
      },
      "47189": {
        "name": "Марикостиново",
        "type": "с.",
        "town_hall": "Марикостиново",
        "phone_code": "07426",
        "latitude": 41.4314,
        "longitude": 23.3335,
        "post_codes": [
          "2870"
        ]
      },
      "47247": {
        "name": "Марино поле",
        "type": "с.",
        "town_hall": "Марино поле",
        "phone_code": "07425",
        "latitude": 41.4132,
        "longitude": 23.3487,
        "post_codes": [
          "2867"
        ]
      },
      "47799": {
        "name": "Мендово",
        "type": "с.",
        "town_hall": "Мендово",
        "phone_code": "07428",
        "latitude": 41.4205,
        "longitude": 23.1183,
        "post_codes": [
          "2893"
        ]
      },
      "48458": {
        "name": "Митино",
        "type": "с.",
        "town_hall": "Митино",
        "phone_code": "0745",
        "latitude": 41.4306,
        "longitude": 23.2532,
        "post_codes": [
          "2857"
        ]
      },
      "48578": {
        "name": "Михнево",
        "type": "с.",
        "town_hall": "Михнево",
        "phone_code": "07424",
        "latitude": 41.4584,
        "longitude": 23.192,
        "post_codes": [
          "2862"
        ]
      },
      "52091": {
        "name": "Ново Кономлади",
        "type": "с.",
        "town_hall": "Ново Кономлади",
        "phone_code": "074201",
        "latitude": 41.4545,
        "longitude": 23.3314,
        "post_codes": [
          "2874"
        ]
      },
      "56126": {
        "name": "Петрич",
        "type": "гр.",
        "town_hall": "Петрич",
        "phone_code": "0745",
        "latitude": 41.3981,
        "longitude": 23.2067,
        "post_codes": [
          "2850"
        ]
      },
      "58061": {
        "name": "Право бърдо",
        "type": "с.",
        "town_hall": "Право бърдо",
        "phone_code": "07427",
        "latitude": 41.4379,
        "longitude": 23.0836,
        "post_codes": [
          "2894"
        ]
      },
      "59077": {
        "name": "Първомай",
        "type": "с.",
        "town_hall": "Първомай",
        "phone_code": "07427",
        "latitude": 41.399,
        "longitude": 23.1398,
        "post_codes": [
          "2890"
        ]
      },
      "62623": {
        "name": "Рибник",
        "type": "с.",
        "town_hall": "Рибник",
        "phone_code": "07424",
        "latitude": 41.487,
        "longitude": 23.2557,
        "post_codes": [
          "2864"
        ]
      },
      "49312": {
        "name": "Рупите",
        "type": "с.",
        "town_hall": "Рупите",
        "phone_code": "074203",
        "latitude": 41.4415,
        "longitude": 23.2408,
        "post_codes": [
          "2863"
        ]
      },
      "63542": {
        "name": "Ръждак",
        "type": "с.",
        "town_hall": "Ръждак",
        "phone_code": "0745",
        "latitude": 41.4013,
        "longitude": 23.2403,
        "post_codes": [
          "2856"
        ]
      },
      "65288": {
        "name": "Самуилова крепост",
        "type": "с.",
        "town_hall": "Струмешница",
        "phone_code": "",
        "latitude": 41.3947,
        "longitude": 23.029,
        "post_codes": [
          "2895"
        ]
      },
      "65293": {
        "name": "Самуилово",
        "type": "с.",
        "town_hall": "Самуилово",
        "phone_code": "07423",
        "latitude": 41.3721,
        "longitude": 23.0885,
        "post_codes": [
          "2879"
        ]
      },
      "66901": {
        "name": "Скрът",
        "type": "с.",
        "town_hall": "Скрът",
        "phone_code": "07428",
        "latitude": 41.3648,
        "longitude": 22.996,
        "post_codes": [
          "2879"
        ]
      },
      "69119": {
        "name": "Старчево",
        "type": "с.",
        "town_hall": "Старчево",
        "phone_code": "07424",
        "latitude": 41.4725,
        "longitude": 23.2321,
        "post_codes": [
          "2861"
        ]
      },
      "69941": {
        "name": "Струмешница",
        "type": "с.",
        "town_hall": "Струмешница",
        "phone_code": "074205",
        "latitude": 41.395,
        "longitude": 23.0447,
        "post_codes": [
          "2895"
        ]
      },
      "72672": {
        "name": "Тонско дабе",
        "type": "с.",
        "town_hall": "Яково",
        "phone_code": "",
        "latitude": 41.5015,
        "longitude": 23.1308,
        "post_codes": [
          "2875"
        ]
      },
      "72744": {
        "name": "Тополница",
        "type": "с.",
        "town_hall": "Тополница",
        "phone_code": "07422",
        "latitude": 41.4046,
        "longitude": 23.3232,
        "post_codes": [
          "2858"
        ]
      },
      "81788": {
        "name": "Чурилово",
        "type": "с.",
        "town_hall": "Чурилово",
        "phone_code": "",
        "latitude": 41.4604,
        "longitude": 22.9992,
        "post_codes": [
          "2885"
        ]
      },
      "81791": {
        "name": "Чуричени",
        "type": "с.",
        "town_hall": "Чуричени",
        "phone_code": "074206",
        "latitude": 41.4559,
        "longitude": 23.1263,
        "post_codes": [
          "2891"
        ]
      },
      "81832": {
        "name": "Чучулигово",
        "type": "с.",
        "town_hall": "Чучулигово",
        "phone_code": "07425",
        "latitude": 41.403,
        "longitude": 23.3602,
        "post_codes": [
          "2865"
        ]
      },
      "87134": {
        "name": "Яворница",
        "type": "с.",
        "town_hall": "Яворница",
        "phone_code": "074202",
        "latitude": 41.3643,
        "longitude": 23.0488,
        "post_codes": [
          "2896"
        ]
      },
      "87312": {
        "name": "Яково",
        "type": "с.",
        "town_hall": "Яково",
        "phone_code": "07424",
        "latitude": 41.5155,
        "longitude": 23.1397,
        "post_codes": [
          "2816"
        ]
      }
    },
    "Разлог": {
      "2693": {
        "name": "Баня",
        "type": "с.",
        "town_hall": "Баня",
        "phone_code": "074445",
        "latitude": 42.5535,
        "longitude": 24.8318,
        "post_codes": [
          "2778"
        ]
      },
      "2960": {
        "name": "Бачево",
        "type": "с.",
        "town_hall": "Бачево",
        "phone_code": "074448",
        "latitude": 41.9202,
        "longitude": 23.453,
        "post_codes": [
          "2769"
        ]
      },
      "15326": {
        "name": "Годлево",
        "type": "с.",
        "town_hall": "Годлево",
        "phone_code": "074402",
        "latitude": 41.9292,
        "longitude": 23.4784,
        "post_codes": [
          "2768"
        ]
      },
      "16754": {
        "name": "Горно Драглище",
        "type": "с.",
        "town_hall": "Горно Драглище",
        "phone_code": "074401",
        "latitude": 41.9468,
        "longitude": 23.5093,
        "post_codes": [
          "2797"
        ]
      },
      "21748": {
        "name": "Добърско",
        "type": "с.",
        "town_hall": "Добърско",
        "phone_code": "074406",
        "latitude": 41.9693,
        "longitude": 23.4797,
        "post_codes": [
          "2799"
        ]
      },
      "22602": {
        "name": "Долно Драглище",
        "type": "с.",
        "town_hall": "Долно Драглище",
        "phone_code": "074403",
        "latitude": 41.9343,
        "longitude": 23.5144,
        "post_codes": [
          "2798"
        ]
      },
      "61813": {
        "name": "Разлог",
        "type": "гр.",
        "town_hall": "Разлог",
        "phone_code": "0747",
        "latitude": 41.886,
        "longitude": 23.4628,
        "post_codes": [
          "2760"
        ]
      }
    },
    "Сандански": {
      "3335": {
        "name": "Белевехчево",
        "type": "с.",
        "town_hall": "Дебрене",
        "phone_code": "0746",
        "latitude": 41.566,
        "longitude": 23.309,
        "post_codes": [
          "2800"
        ]
      },
      "3784": {
        "name": "Бельово",
        "type": "с.",
        "town_hall": "Бельово",
        "phone_code": "074388",
        "latitude": 41.4805,
        "longitude": 23.5501,
        "post_codes": [
          "2824"
        ]
      },
      "4933": {
        "name": "Бождово",
        "type": "с.",
        "town_hall": "Малки Цалим",
        "phone_code": "0746",
        "latitude": 41.6008,
        "longitude": 23.3605,
        "post_codes": [
          "2811"
        ]
      },
      "11168": {
        "name": "Виногради",
        "type": "с.",
        "town_hall": "Виногради",
        "phone_code": "074323",
        "latitude": 41.4974,
        "longitude": 23.3838,
        "post_codes": [
          "2822"
        ]
      },
      "11315": {
        "name": "Вихрен",
        "type": "с.",
        "town_hall": "Малки Цалим",
        "phone_code": "",
        "latitude": 41.7672,
        "longitude": 23.3989,
        "post_codes": [
          "2800"
        ]
      },
      "12200": {
        "name": "Враня",
        "type": "с.",
        "town_hall": "Враня",
        "phone_code": "07438",
        "latitude": 42.6399,
        "longitude": 23.4322,
        "post_codes": [
          "2830"
        ]
      },
      "12471": {
        "name": "Вълково",
        "type": "с.",
        "town_hall": "Вълково",
        "phone_code": "074324",
        "latitude": 41.578,
        "longitude": 23.222,
        "post_codes": [
          "2807"
        ]
      },
      "15549": {
        "name": "Голем Цалим",
        "type": "с.",
        "town_hall": "Малки Цалим",
        "phone_code": "0746",
        "latitude": 41.6079,
        "longitude": 23.3363,
        "post_codes": [
          "2800"
        ]
      },
      "15583": {
        "name": "Голешово",
        "type": "с.",
        "town_hall": "Голешово",
        "phone_code": "0746",
        "latitude": 41.4325,
        "longitude": 23.5908,
        "post_codes": [
          "2818"
        ]
      },
      "16403": {
        "name": "Горна Сушица",
        "type": "с.",
        "town_hall": "Горна Сушица",
        "phone_code": "07435",
        "latitude": 41.5537,
        "longitude": 23.3877,
        "post_codes": [
          "2811"
        ]
      },
      "16969": {
        "name": "Горно Спанчево",
        "type": "с.",
        "town_hall": "Горно Спанчево",
        "phone_code": "074388",
        "latitude": 41.5024,
        "longitude": 23.5018,
        "post_codes": [
          "2824"
        ]
      },
      "20105": {
        "name": "Дамяница",
        "type": "с.",
        "town_hall": "Дамяница",
        "phone_code": "07430",
        "latitude": 41.5114,
        "longitude": 23.2664,
        "post_codes": [
          "2813"
        ]
      },
      "20345": {
        "name": "Дебрене",
        "type": "с.",
        "town_hall": "Дебрене",
        "phone_code": "0746",
        "latitude": 41.5771,
        "longitude": 23.3143,
        "post_codes": [
          "2803"
        ]
      },
      "20780": {
        "name": "Джигурово",
        "type": "с.",
        "town_hall": "Джигурово",
        "phone_code": "0746",
        "latitude": 41.5602,
        "longitude": 23.3119,
        "post_codes": [
          "2812"
        ]
      },
      "21909": {
        "name": "Долени",
        "type": "с.",
        "town_hall": "Сугарево",
        "phone_code": "",
        "latitude": 41.5726,
        "longitude": 23.4133,
        "post_codes": [
          "2887"
        ]
      },
      "31139": {
        "name": "Златолист",
        "type": "с.",
        "town_hall": "Златолист",
        "phone_code": "07438",
        "latitude": 41.4947,
        "longitude": 23.4204,
        "post_codes": [
          "2830"
        ]
      },
      "20910": {
        "name": "Зорница",
        "type": "с.",
        "town_hall": "Зорница",
        "phone_code": "074323",
        "latitude": 42.3847,
        "longitude": 26.9289,
        "post_codes": [
          "2821"
        ]
      },
      "35362": {
        "name": "Калиманци",
        "type": "с.",
        "town_hall": "Калиманци",
        "phone_code": "07438",
        "latitude": 43.2775,
        "longitude": 27.7234,
        "post_codes": [
          "2832"
        ]
      },
      "36693": {
        "name": "Катунци",
        "type": "с.",
        "town_hall": "Катунци",
        "phone_code": "07438",
        "latitude": 41.4443,
        "longitude": 23.4332,
        "post_codes": [
          "2830"
        ]
      },
      "36734": {
        "name": "Кашина",
        "type": "с.",
        "town_hall": "Рожен",
        "phone_code": "07437",
        "latitude": 41.5468,
        "longitude": 23.4686,
        "post_codes": [
          "2820"
        ]
      },
      "37486": {
        "name": "Ковачево",
        "type": "с.",
        "town_hall": "Ковачево",
        "phone_code": "074388",
        "latitude": 41.4979,
        "longitude": 23.4823,
        "post_codes": [
          "2824"
        ]
      },
      "40378": {
        "name": "Кръстилци",
        "type": "с.",
        "town_hall": "Кръстилци",
        "phone_code": "0746",
        "latitude": 41.5515,
        "longitude": 23.2005,
        "post_codes": [
          "2805"
        ]
      },
      "40926": {
        "name": "Кърланово",
        "type": "с.",
        "town_hall": "Кърланово",
        "phone_code": "07437",
        "latitude": 41.5442,
        "longitude": 23.4169,
        "post_codes": [
          "2820"
        ]
      },
      "43030": {
        "name": "Ладарево",
        "type": "с.",
        "town_hall": "Ладарево",
        "phone_code": "07435",
        "latitude": 41.5512,
        "longitude": 23.3431,
        "post_codes": [
          "2811"
        ]
      },
      "43150": {
        "name": "Ласкарево",
        "type": "с.",
        "town_hall": "Ласкарево",
        "phone_code": "07435",
        "latitude": 41.5444,
        "longitude": 23.3331,
        "post_codes": [
          "2811"
        ]
      },
      "43181": {
        "name": "Лебница",
        "type": "с.",
        "town_hall": "Лебница",
        "phone_code": "074324",
        "latitude": 41.5219,
        "longitude": 23.2422,
        "post_codes": [
          "2866"
        ]
      },
      "43243": {
        "name": "Левуново",
        "type": "с.",
        "town_hall": "Левуново",
        "phone_code": "07436",
        "latitude": 41.4872,
        "longitude": 23.3055,
        "post_codes": [
          "2817"
        ]
      },
      "43503": {
        "name": "Лехово",
        "type": "с.",
        "town_hall": "Лехово",
        "phone_code": "",
        "latitude": 41.4102,
        "longitude": 23.4868,
        "post_codes": [
          "2816"
        ]
      },
      "43565": {
        "name": "Лешница",
        "type": "с.",
        "town_hall": "Лешница",
        "phone_code": "07431",
        "latitude": 43.0057,
        "longitude": 24.7011,
        "post_codes": [
          "2808"
        ]
      },
      "43699": {
        "name": "Лиляново",
        "type": "с.",
        "town_hall": "Лиляново",
        "phone_code": "074325",
        "latitude": 41.6164,
        "longitude": 23.3164,
        "post_codes": [
          "2809"
        ]
      },
      "44121": {
        "name": "Лозеница",
        "type": "с.",
        "town_hall": "Лозеница",
        "phone_code": "074323",
        "latitude": 41.5044,
        "longitude": 23.3724,
        "post_codes": [
          "2821"
        ]
      },
      "44625": {
        "name": "Любовище",
        "type": "с.",
        "town_hall": "Рожен",
        "phone_code": "07437",
        "latitude": 41.5273,
        "longitude": 23.4425,
        "post_codes": [
          "2880"
        ]
      },
      "44639": {
        "name": "Любовка",
        "type": "с.",
        "town_hall": "Любовка",
        "phone_code": "07435",
        "latitude": 41.5787,
        "longitude": 23.3644,
        "post_codes": [
          "2811"
        ]
      },
      "46526": {
        "name": "Малки Цалим",
        "type": "с.",
        "town_hall": "Малки Цалим",
        "phone_code": "",
        "latitude": 41.6018,
        "longitude": 23.3472,
        "post_codes": [
          "2800"
        ]
      },
      "47754": {
        "name": "Мелник",
        "type": "гр.",
        "town_hall": "Мелник",
        "phone_code": "07437",
        "latitude": 41.5246,
        "longitude": 23.3915,
        "post_codes": [
          "2820"
        ]
      },
      "52074": {
        "name": "Ново Делчево",
        "type": "с.",
        "town_hall": "Ново Делчево",
        "phone_code": "074327",
        "latitude": 41.5064,
        "longitude": 23.2838,
        "post_codes": [
          "2814"
        ]
      },
      "52307": {
        "name": "Ново Ходжово",
        "type": "с.",
        "town_hall": "Ново Ходжово",
        "phone_code": "07438",
        "latitude": 41.4074,
        "longitude": 23.3994,
        "post_codes": [
          "2831"
        ]
      },
      "56174": {
        "name": "Петрово",
        "type": "с.",
        "town_hall": "Петрово",
        "phone_code": "074322",
        "latitude": 48.3349,
        "longitude": 33.2705,
        "post_codes": [
          "2815"
        ]
      },
      "56352": {
        "name": "Пиперица",
        "type": "с.",
        "town_hall": "Пиперица",
        "phone_code": "07438",
        "latitude": 41.4109,
        "longitude": 23.4393,
        "post_codes": [
          "2831"
        ]
      },
      "56410": {
        "name": "Пирин",
        "type": "с.",
        "town_hall": "Пирин",
        "phone_code": "074386",
        "latitude": 41.6209,
        "longitude": 23.5504,
        "post_codes": [
          "2823"
        ]
      },
      "56839": {
        "name": "Плоски",
        "type": "с.",
        "town_hall": "Плоски",
        "phone_code": "07439",
        "latitude": 41.6449,
        "longitude": 23.2667,
        "post_codes": [
          "2810"
        ]
      },
      "57176": {
        "name": "Поленица",
        "type": "с.",
        "town_hall": "Поленица",
        "phone_code": "07431",
        "latitude": 41.5659,
        "longitude": 23.2975,
        "post_codes": [
          "2804"
        ]
      },
      "62918": {
        "name": "Рожен",
        "type": "с.",
        "town_hall": "Рожен",
        "phone_code": "07437",
        "latitude": 41.5346,
        "longitude": 23.4335,
        "post_codes": [
          "2820"
        ]
      },
      "65334": {
        "name": "Сандански",
        "type": "гр.",
        "town_hall": "Сандански",
        "phone_code": "0746",
        "latitude": 41.5678,
        "longitude": 23.2804,
        "post_codes": [
          "2800"
        ]
      },
      "66785": {
        "name": "Склаве",
        "type": "с.",
        "town_hall": "Склаве",
        "phone_code": "07435",
        "latitude": 41.5228,
        "longitude": 23.3201,
        "post_codes": [
          "2811"
        ]
      },
      "68223": {
        "name": "Спатово",
        "type": "с.",
        "town_hall": "Спатово",
        "phone_code": "07435",
        "latitude": 41.5081,
        "longitude": 23.325,
        "post_codes": [
          "2811"
        ]
      },
      "69290": {
        "name": "Стожа",
        "type": "с.",
        "town_hall": "Лиляново",
        "phone_code": "",
        "latitude": 41.6195,
        "longitude": 23.3208,
        "post_codes": [
          "2800"
        ]
      },
      "69938": {
        "name": "Струма",
        "type": "с.",
        "town_hall": "Струма",
        "phone_code": "074324",
        "latitude": 41.7155,
        "longitude": 23.263,
        "post_codes": [
          "2806"
        ]
      },
      "70189": {
        "name": "Сугарево",
        "type": "с.",
        "town_hall": "Сугарево",
        "phone_code": "07437",
        "latitude": 41.5612,
        "longitude": 23.4273,
        "post_codes": [
          "2820"
        ]
      },
      "77361": {
        "name": "Хотово",
        "type": "с.",
        "town_hall": "Хотово",
        "phone_code": "07435",
        "latitude": 41.4991,
        "longitude": 23.3361,
        "post_codes": [
          "2821"
        ]
      },
      "77414": {
        "name": "Храсна",
        "type": "с.",
        "town_hall": "Бельово",
        "phone_code": "074388",
        "latitude": 41.4883,
        "longitude": 23.5331,
        "post_codes": [
          "2824"
        ]
      },
      "77565": {
        "name": "Хърсово",
        "type": "с.",
        "town_hall": "Хърсово",
        "phone_code": "074321",
        "latitude": 41.461,
        "longitude": 23.383,
        "post_codes": [
          "2819"
        ]
      },
      "80618": {
        "name": "Черешница",
        "type": "с.",
        "town_hall": "Черешница",
        "phone_code": "074388",
        "latitude": 41.4952,
        "longitude": 23.4581,
        "post_codes": [
          "2824"
        ]
      },
      "87446": {
        "name": "Яново",
        "type": "с.",
        "town_hall": "Яново",
        "phone_code": "074322",
        "latitude": 41.4384,
        "longitude": 23.4862,
        "post_codes": [
          "2816"
        ]
      }
    },
    "Сатовча": {
      "4707": {
        "name": "Боголин",
        "type": "с.",
        "town_hall": "Боголин",
        "phone_code": "07547",
        "latitude": 41.5399,
        "longitude": 23.9571,
        "post_codes": [
          "2931"
        ]
      },
      "10046": {
        "name": "Ваклиново",
        "type": "с.",
        "town_hall": "Ваклиново",
        "phone_code": "07545",
        "latitude": 41.5956,
        "longitude": 24.0634,
        "post_codes": [
          "2957"
        ]
      },
      "12499": {
        "name": "Вълкосел",
        "type": "с.",
        "town_hall": "Вълкосел",
        "phone_code": "07547",
        "latitude": 41.5289,
        "longitude": 23.9854,
        "post_codes": [
          "2930"
        ]
      },
      "15312": {
        "name": "Годешево",
        "type": "с.",
        "town_hall": "Годешево",
        "phone_code": "07548",
        "latitude": 41.475,
        "longitude": 24.0519,
        "post_codes": [
          "2938"
        ]
      },
      "21868": {
        "name": "Долен",
        "type": "с.",
        "town_hall": "Долен",
        "phone_code": "07549",
        "latitude": 41.6237,
        "longitude": 23.9314,
        "post_codes": [
          "2968"
        ]
      },
      "29372": {
        "name": "Жижево",
        "type": "с.",
        "town_hall": "Жижево",
        "phone_code": "07545",
        "latitude": 41.5511,
        "longitude": 24.0293,
        "post_codes": [
          "2956"
        ]
      },
      "39089": {
        "name": "Кочан",
        "type": "с.",
        "town_hall": "Кочан",
        "phone_code": "07545",
        "latitude": 41.5869,
        "longitude": 24.0279,
        "post_codes": [
          "2955"
        ]
      },
      "39726": {
        "name": "Крибул",
        "type": "с.",
        "town_hall": "Крибул",
        "phone_code": "07541",
        "latitude": 41.5718,
        "longitude": 23.9468,
        "post_codes": [
          "2951"
        ]
      },
      "54225": {
        "name": "Осина",
        "type": "с.",
        "town_hall": "Осина",
        "phone_code": "07544",
        "latitude": 41.6311,
        "longitude": 24.0804,
        "post_codes": [
          "2953"
        ]
      },
      "56740": {
        "name": "Плетена",
        "type": "с.",
        "town_hall": "Плетена",
        "phone_code": "07541",
        "latitude": 41.6406,
        "longitude": 23.9561,
        "post_codes": [
          "2954"
        ]
      },
      "65440": {
        "name": "Сатовча",
        "type": "с.",
        "town_hall": "Сатовча",
        "phone_code": "07541",
        "latitude": 41.6195,
        "longitude": 23.976,
        "post_codes": [
          "2950"
        ]
      },
      "67270": {
        "name": "Слащен",
        "type": "с.",
        "town_hall": "Слащен",
        "phone_code": "07546",
        "latitude": 41.4976,
        "longitude": 24.0182,
        "post_codes": [
          "2937"
        ]
      },
      "73519": {
        "name": "Туховища",
        "type": "с.",
        "town_hall": "Туховища",
        "phone_code": "07548",
        "latitude": 41.4985,
        "longitude": 24.0441,
        "post_codes": [
          "2939"
        ]
      },
      "76203": {
        "name": "Фъргово",
        "type": "с.",
        "town_hall": "Фъргово",
        "phone_code": "07545",
        "latitude": 41.5763,
        "longitude": 23.9964,
        "post_codes": [
          "2952"
        ]
      }
    },
    "Симитли": {
      "6238": {
        "name": "Брежани",
        "type": "с.",
        "town_hall": "Брежани",
        "phone_code": "0748",
        "latitude": 41.863,
        "longitude": 23.1864,
        "post_codes": [
          "2750"
        ]
      },
      "6522": {
        "name": "Брестово",
        "type": "с.",
        "town_hall": "Симитли",
        "phone_code": "",
        "latitude": 41.8283,
        "longitude": 23.0038,
        "post_codes": [
          "2735"
        ]
      },
      "16870": {
        "name": "Горно Осеново",
        "type": "с.",
        "town_hall": "Долно Осеново",
        "phone_code": "0748",
        "latitude": 41.9926,
        "longitude": 23.2649,
        "post_codes": [
          "2756"
        ]
      },
      "17405": {
        "name": "Градево",
        "type": "с.",
        "town_hall": "Градево",
        "phone_code": "0748",
        "latitude": 41.9193,
        "longitude": 23.196,
        "post_codes": [
          "2755"
        ]
      },
      "21837": {
        "name": "Докатичево",
        "type": "с.",
        "town_hall": "Симитли",
        "phone_code": "",
        "latitude": 41.8814,
        "longitude": 23.0626,
        "post_codes": [
          "2734"
        ]
      },
      "22753": {
        "name": "Долно Осеново",
        "type": "с.",
        "town_hall": "Долно Осеново",
        "phone_code": "0748",
        "latitude": 41.9544,
        "longitude": 23.2413,
        "post_codes": [
          "2757"
        ]
      },
      "29146": {
        "name": "Железница",
        "type": "с.",
        "town_hall": "Железница",
        "phone_code": "0748",
        "latitude": 41.9228,
        "longitude": 23.111,
        "post_codes": [
          "2732"
        ]
      },
      "40052": {
        "name": "Крупник",
        "type": "с.",
        "town_hall": "Крупник",
        "phone_code": "0748",
        "latitude": 41.8505,
        "longitude": 23.1168,
        "post_codes": [
          "2740"
        ]
      },
      "48012": {
        "name": "Мечкул",
        "type": "с.",
        "town_hall": "Сенокос",
        "phone_code": "0748",
        "latitude": 41.8243,
        "longitude": 23.2018,
        "post_codes": [
          "2754"
        ]
      },
      "57162": {
        "name": "Полена",
        "type": "с.",
        "town_hall": "Полена",
        "phone_code": "0748",
        "latitude": 41.8445,
        "longitude": 23.1047,
        "post_codes": [
          "2758"
        ]
      },
      "57203": {
        "name": "Полето",
        "type": "с.",
        "town_hall": "Полето",
        "phone_code": "0748",
        "latitude": 41.8614,
        "longitude": 23.1476,
        "post_codes": [
          "2751"
        ]
      },
      "61978": {
        "name": "Ракитна",
        "type": "с.",
        "town_hall": "Ракитна",
        "phone_code": "0748",
        "latitude": 41.8333,
        "longitude": 23.2,
        "post_codes": [
          "2753"
        ]
      },
      "66247": {
        "name": "Сенокос",
        "type": "с.",
        "town_hall": "Сенокос",
        "phone_code": "0748",
        "latitude": 41.8316,
        "longitude": 23.2325,
        "post_codes": [
          "2752"
        ]
      },
      "66460": {
        "name": "Симитли",
        "type": "гр.",
        "town_hall": "Симитли",
        "phone_code": "0748",
        "latitude": 41.8897,
        "longitude": 23.106,
        "post_codes": [
          "2730"
        ]
      },
      "70370": {
        "name": "Сухострел",
        "type": "с.",
        "town_hall": "Симитли",
        "phone_code": "0748",
        "latitude": 41.8398,
        "longitude": 22.9644,
        "post_codes": [
          "2736"
        ]
      },
      "35105": {
        "name": "Сушица",
        "type": "с.",
        "town_hall": "Сушица",
        "phone_code": "0748",
        "latitude": 41.817,
        "longitude": 23.0577,
        "post_codes": [
          "2759"
        ]
      },
      "73184": {
        "name": "Тросково",
        "type": "с.",
        "town_hall": "Симитли",
        "phone_code": "0748",
        "latitude": 42.0253,
        "longitude": 22.9315,
        "post_codes": [
          "2733"
        ]
      },
      "81013": {
        "name": "Черниче",
        "type": "с.",
        "town_hall": "Черниче",
        "phone_code": "0748",
        "latitude": 41.8596,
        "longitude": 23.1277,
        "post_codes": [
          "2741"
        ]
      }
    },
    "Струмяни": {
      "10608": {
        "name": "Велющец",
        "type": "с.",
        "town_hall": "Игралище",
        "phone_code": "074345",
        "latitude": 41.5881,
        "longitude": 23.1415,
        "post_codes": [
          "2849"
        ]
      },
      "12142": {
        "name": "Вракуповица",
        "type": "с.",
        "town_hall": "Вракуповица",
        "phone_code": "074346",
        "latitude": 41.662,
        "longitude": 23.089,
        "post_codes": [
          "2834"
        ]
      },
      "16033": {
        "name": "Гореме",
        "type": "с.",
        "town_hall": "Гореме",
        "phone_code": "074343",
        "latitude": 41.6411,
        "longitude": 23.0914,
        "post_codes": [
          "2834"
        ]
      },
      "16273": {
        "name": "Горна Крушица",
        "type": "с.",
        "town_hall": "Горна Крушица",
        "phone_code": "074341",
        "latitude": 41.668,
        "longitude": 23.1646,
        "post_codes": [
          "2827"
        ]
      },
      "16362": {
        "name": "Горна Рибница",
        "type": "с.",
        "town_hall": "Цапарево",
        "phone_code": "074344",
        "latitude": 41.6439,
        "longitude": 23.0353,
        "post_codes": [
          "2836"
        ]
      },
      "21467": {
        "name": "Добри лаки",
        "type": "с.",
        "town_hall": "Добри лаки",
        "phone_code": "074344",
        "latitude": 41.5811,
        "longitude": 22.9948,
        "post_codes": [
          "2838"
        ]
      },
      "23532": {
        "name": "Драката",
        "type": "с.",
        "town_hall": "Драката",
        "phone_code": "074341",
        "latitude": 41.6089,
        "longitude": 23.2057,
        "post_codes": [
          "2829"
        ]
      },
      "32322": {
        "name": "Игралище",
        "type": "с.",
        "town_hall": "Игралище",
        "phone_code": "07438",
        "latitude": 41.5663,
        "longitude": 23.1242,
        "post_codes": [
          "2848"
        ]
      },
      "32665": {
        "name": "Илинденци",
        "type": "с.",
        "town_hall": "Илинденци",
        "phone_code": "074341",
        "latitude": 41.6481,
        "longitude": 23.2298,
        "post_codes": [
          "2833"
        ]
      },
      "35818": {
        "name": "Каменица",
        "type": "с.",
        "town_hall": "Каменица",
        "phone_code": "074341",
        "latitude": 41.6503,
        "longitude": 23.1599,
        "post_codes": [
          "2826"
        ]
      },
      "37191": {
        "name": "Клепало",
        "type": "с.",
        "town_hall": "Клепало",
        "phone_code": "074344",
        "latitude": 41.6223,
        "longitude": 22.9738,
        "post_codes": [
          "2837"
        ]
      },
      "38056": {
        "name": "Колибите",
        "type": "с.",
        "town_hall": "Добри лаки",
        "phone_code": "074344",
        "latitude": 41.5829,
        "longitude": 23.0292,
        "post_codes": [
          "3838"
        ]
      },
      "40957": {
        "name": "Кърпелево",
        "type": "с.",
        "town_hall": "Кърпелево",
        "phone_code": "07434",
        "latitude": 41.6424,
        "longitude": 23.1186,
        "post_codes": [
          "2825"
        ]
      },
      "47473": {
        "name": "Махалата",
        "type": "с.",
        "town_hall": "Махалата",
        "phone_code": "074345",
        "latitude": 41.5784,
        "longitude": 23.0955,
        "post_codes": [
          "2849"
        ]
      },
      "49686": {
        "name": "Микрево",
        "type": "с.",
        "town_hall": "Микрево",
        "phone_code": "",
        "latitude": 41.6228,
        "longitude": 23.1963,
        "post_codes": [
          "2826"
        ]
      },
      "51737": {
        "name": "Никудин",
        "type": "с.",
        "town_hall": "Никудин",
        "phone_code": "074345",
        "latitude": 41.5665,
        "longitude": 23.0439,
        "post_codes": [
          "2839"
        ]
      },
      "55227": {
        "name": "Палат",
        "type": "с.",
        "town_hall": "Палат",
        "phone_code": "07434",
        "latitude": 41.5909,
        "longitude": 23.1881,
        "post_codes": [
          "2829"
        ]
      },
      "61772": {
        "name": "Раздол",
        "type": "с.",
        "town_hall": "Раздол",
        "phone_code": "074347",
        "latitude": 41.6158,
        "longitude": 23.0088,
        "post_codes": [
          "2835"
        ]
      },
      "65930": {
        "name": "Седелец",
        "type": "с.",
        "town_hall": "Седелец",
        "phone_code": "074345",
        "latitude": 41.5885,
        "longitude": 23.0961,
        "post_codes": [
          "2834"
        ]
      },
      "69969": {
        "name": "Струмяни",
        "type": "с.",
        "town_hall": "Струмяни",
        "phone_code": "07434",
        "latitude": 41.6399,
        "longitude": 23.2014,
        "post_codes": [
          "2825"
        ]
      },
      "78046": {
        "name": "Цапарево",
        "type": "с.",
        "town_hall": "Цапарево",
        "phone_code": "074346",
        "latitude": 41.6269,
        "longitude": 23.0998,
        "post_codes": [
          "2834"
        ]
      }
    },
    "Хаджидимово": {
      "14": {
        "name": "Абланица",
        "type": "с.",
        "town_hall": "Абланица",
        "phone_code": "07524",
        "latitude": 41.5378,
        "longitude": 23.9341,
        "post_codes": [
          "2932"
        ]
      },
      "3976": {
        "name": "Беслен",
        "type": "с.",
        "town_hall": "Беслен",
        "phone_code": "07523",
        "latitude": 41.4716,
        "longitude": 23.965,
        "post_codes": [
          "2934"
        ]
      },
      "4399": {
        "name": "Блатска",
        "type": "с.",
        "town_hall": "Блатска",
        "phone_code": "07528",
        "latitude": 41.5342,
        "longitude": 23.8647,
        "post_codes": [
          "2944"
        ]
      },
      "14341": {
        "name": "Гайтаниново",
        "type": "с.",
        "town_hall": "Хаджидимово",
        "phone_code": "075215",
        "latitude": 41.4515,
        "longitude": 23.7142,
        "post_codes": [
          "2924"
        ]
      },
      "32648": {
        "name": "Илинден",
        "type": "с.",
        "town_hall": "Хаджидимово",
        "phone_code": "07521",
        "latitude": 41.9882,
        "longitude": 21.6422,
        "post_codes": [
          "2929"
        ]
      },
      "38532": {
        "name": "Копривлен",
        "type": "с.",
        "town_hall": "Копривлен",
        "phone_code": "07521",
        "latitude": 41.5197,
        "longitude": 23.7961,
        "post_codes": [
          "2921"
        ]
      },
      "44464": {
        "name": "Лъки",
        "type": "с.",
        "town_hall": "Хаджидимово",
        "phone_code": "075215",
        "latitude": 41.833,
        "longitude": 24.8314,
        "post_codes": [
          "2928"
        ]
      },
      "51860": {
        "name": "Нова Ловча",
        "type": "с.",
        "town_hall": "Хаджидимово",
        "phone_code": "075214",
        "latitude": 41.4206,
        "longitude": 23.7208,
        "post_codes": [
          "2925"
        ]
      },
      "52101": {
        "name": "Ново Лески",
        "type": "с.",
        "town_hall": "Ново Лески",
        "phone_code": "07521",
        "latitude": 41.532,
        "longitude": 23.7786,
        "post_codes": [
          "2923"
        ]
      },
      "55467": {
        "name": "Парил",
        "type": "с.",
        "town_hall": "Хаджидимово",
        "phone_code": "075214",
        "latitude": 41.4344,
        "longitude": 23.6821,
        "post_codes": [
          "2926"
        ]
      },
      "56109": {
        "name": "Петрелик",
        "type": "с.",
        "town_hall": "Хаджидимово",
        "phone_code": "07528",
        "latitude": 41.4852,
        "longitude": 23.8636,
        "post_codes": [
          "2936"
        ]
      },
      "65108": {
        "name": "Садово",
        "type": "с.",
        "town_hall": "Садово",
        "phone_code": "07528",
        "latitude": 41.5053,
        "longitude": 23.8213,
        "post_codes": [
          "2922"
        ]
      },
      "72268": {
        "name": "Теплен",
        "type": "с.",
        "town_hall": "Хаджидимово",
        "phone_code": "07528",
        "latitude": 41.4855,
        "longitude": 23.937,
        "post_codes": [
          "2935"
        ]
      },
      "72374": {
        "name": "Тешово",
        "type": "с.",
        "town_hall": "Хаджидимово",
        "phone_code": "075214",
        "latitude": 41.4669,
        "longitude": 23.6972,
        "post_codes": [
          "2927"
        ]
      },
      "77058": {
        "name": "Хаджидимово",
        "type": "гр.",
        "town_hall": "Хаджидимово",
        "phone_code": "07528",
        "latitude": 41.5166,
        "longitude": 23.853,
        "post_codes": [
          "2933"
        ]
      }
    },
    "Якоруда": {
      "59": {
        "name": "Аврамово",
        "type": "с.",
        "town_hall": "Аврамово",
        "phone_code": "07442",
        "latitude": 42.0333,
        "longitude": 23.6667,
        "post_codes": [
          "2795"
        ]
      },
      "3561": {
        "name": "Бел камен",
        "type": "с.",
        "town_hall": "Бел камен",
        "phone_code": "",
        "latitude": 41.65,
        "longitude": 23.7333,
        "post_codes": [
          "2793"
        ]
      },
      "7822": {
        "name": "Бунцево",
        "type": "с.",
        "town_hall": "Бунцево",
        "phone_code": "07442",
        "latitude": 42.0018,
        "longitude": 23.7101,
        "post_codes": [
          "2792"
        ]
      },
      "38220": {
        "name": "Конарско",
        "type": "с.",
        "town_hall": "Конарско",
        "phone_code": "07442",
        "latitude": 42.0165,
        "longitude": 23.7228,
        "post_codes": [
          "2792"
        ]
      },
      "32603": {
        "name": "Смолево",
        "type": "с.",
        "town_hall": "Смолево",
        "phone_code": "07442",
        "latitude": 42.0173,
        "longitude": 23.7628,
        "post_codes": [
          "2794"
        ]
      },
      "81850": {
        "name": "Черна Места",
        "type": "с.",
        "town_hall": "Черна Места",
        "phone_code": "07442",
        "latitude": 42.0511,
        "longitude": 23.7291,
        "post_codes": [
          "2790"
        ]
      },
      "86101": {
        "name": "Юруково",
        "type": "с.",
        "town_hall": "Юруково",
        "phone_code": "074495",
        "latitude": 41.9728,
        "longitude": 23.6163,
        "post_codes": [
          "2796"
        ]
      },
      "87338": {
        "name": "Якоруда",
        "type": "гр.",
        "town_hall": "Якоруда",
        "phone_code": "07442",
        "latitude": 42.0178,
        "longitude": 23.6688,
        "post_codes": [
          "2790"
        ]
      }
    }
  },
  "Бургас": {
    "Айтос": {
      "151": {
        "name": "Айтос",
        "type": "гр.",
        "town_hall": "Айтос",
        "phone_code": "0558",
        "latitude": 42.7031,
        "longitude": 27.2506,
        "post_codes": [
          "8500"
        ]
      },
      "23889": {
        "name": "Дрянковец",
        "type": "с.",
        "town_hall": "Айтос",
        "phone_code": "05536",
        "latitude": 42.6873,
        "longitude": 27.3734,
        "post_codes": [
          "8524"
        ]
      },
      "30805": {
        "name": "Зетьово",
        "type": "с.",
        "town_hall": "Айтос",
        "phone_code": "0558",
        "latitude": 42.7574,
        "longitude": 27.2265,
        "post_codes": [
          "8517"
        ]
      },
      "36227": {
        "name": "Карагеоргиево",
        "type": "с.",
        "town_hall": "Карагеоргиево",
        "phone_code": "05534",
        "latitude": 42.7353,
        "longitude": 27.186,
        "post_codes": [
          "8543"
        ]
      },
      "36381": {
        "name": "Караново",
        "type": "с.",
        "town_hall": "Караново",
        "phone_code": "05538",
        "latitude": 42.5127,
        "longitude": 25.9085,
        "post_codes": [
          "8532"
        ]
      },
      "44817": {
        "name": "Лясково",
        "type": "с.",
        "town_hall": "Айтос",
        "phone_code": "05535",
        "latitude": 42.7287,
        "longitude": 27.2897,
        "post_codes": [
          "8518"
        ]
      },
      "46440": {
        "name": "Малка поляна",
        "type": "с.",
        "town_hall": "Айтос",
        "phone_code": "05538",
        "latitude": 42.6418,
        "longitude": 27.2419,
        "post_codes": [
          "8519"
        ]
      },
      "49477": {
        "name": "Мъглен",
        "type": "с.",
        "town_hall": "Мъглен",
        "phone_code": "05538",
        "latitude": 42.7294,
        "longitude": 27.373,
        "post_codes": [
          "8523"
        ]
      },
      "56321": {
        "name": "Пещерско",
        "type": "с.",
        "town_hall": "Пещерско",
        "phone_code": "05530",
        "latitude": 42.743,
        "longitude": 27.3472,
        "post_codes": [
          "8525"
        ]
      },
      "56438": {
        "name": "Пирне",
        "type": "с.",
        "town_hall": "Пирне",
        "phone_code": "05533",
        "latitude": 42.6778,
        "longitude": 27.1965,
        "post_codes": [
          "8528"
        ]
      },
      "57426": {
        "name": "Поляново",
        "type": "с.",
        "town_hall": "Айтос",
        "phone_code": "05534",
        "latitude": 41.9719,
        "longitude": 25.8181,
        "post_codes": [
          "8544"
        ]
      },
      "62013": {
        "name": "Раклиново",
        "type": "с.",
        "town_hall": "Айтос",
        "phone_code": "05539",
        "latitude": 42.7653,
        "longitude": 27.0507,
        "post_codes": [
          "8547"
        ]
      },
      "70473": {
        "name": "Съдиево",
        "type": "с.",
        "town_hall": "Айтос",
        "phone_code": "05537",
        "latitude": 42.6666,
        "longitude": 27.3201,
        "post_codes": [
          "8522"
        ]
      },
      "72727": {
        "name": "Тополица",
        "type": "с.",
        "town_hall": "Тополица",
        "phone_code": "05532",
        "latitude": 42.7347,
        "longitude": 27.1207,
        "post_codes": [
          "8549"
        ]
      },
      "80813": {
        "name": "Черна могила",
        "type": "с.",
        "town_hall": "Айтос",
        "phone_code": "05536",
        "latitude": 42.7495,
        "longitude": 27.397,
        "post_codes": [
          "8527"
        ]
      },
      "81102": {
        "name": "Черноград",
        "type": "с.",
        "town_hall": "Черноград",
        "phone_code": "05539",
        "latitude": 42.7108,
        "longitude": 27.0973,
        "post_codes": [
          "8545"
        ]
      },
      "81640": {
        "name": "Чукарка",
        "type": "с.",
        "town_hall": "Чукарка",
        "phone_code": "05533",
        "latitude": 42.6484,
        "longitude": 27.1172,
        "post_codes": [
          "8529"
        ]
      }
    },
    "Бургас": {
      "2573": {
        "name": "Банево",
        "type": "с.",
        "town_hall": "Бургас",
        "phone_code": "05512",
        "latitude": 42.625,
        "longitude": 27.3958,
        "post_codes": [
          "8125"
        ]
      },
      "6152": {
        "name": "Братово",
        "type": "с.",
        "town_hall": "Братово",
        "phone_code": "056732",
        "latitude": 42.5045,
        "longitude": 27.304,
        "post_codes": [
          "8111"
        ]
      },
      "6776": {
        "name": "Брястовец",
        "type": "с.",
        "town_hall": "Брястовец",
        "phone_code": "05518",
        "latitude": 42.6734,
        "longitude": 27.4652,
        "post_codes": [
          "8113"
        ]
      },
      "7079": {
        "name": "Бургас",
        "type": "гр.",
        "town_hall": "Бургас",
        "phone_code": "056",
        "latitude": 42.5048,
        "longitude": 27.4626,
        "post_codes": [
          "8000",
          "8001",
          "8002",
          "8005",
          "8008",
          "8009",
          "8010",
          "8011",
          "8012",
          "8014",
          "8015",
          "8016",
          "8017",
          "8018",
          "8019",
          "8125",
          "8127"
        ]
      },
      "7332": {
        "name": "Българово",
        "type": "гр.",
        "town_hall": "Българово",
        "phone_code": "05915",
        "latitude": 42.6219,
        "longitude": 27.3065,
        "post_codes": [
          "8520"
        ]
      },
      "29427": {
        "name": "Ветрен",
        "type": "с.",
        "town_hall": "Бургас",
        "phone_code": "05512",
        "latitude": 42.6043,
        "longitude": 27.3847,
        "post_codes": [
          "8127"
        ]
      },
      "21141": {
        "name": "Димчево",
        "type": "с.",
        "town_hall": "Димчево",
        "phone_code": "05519",
        "latitude": 42.405,
        "longitude": 27.4096,
        "post_codes": [
          "8159"
        ]
      },
      "23090": {
        "name": "Драганово",
        "type": "с.",
        "town_hall": "Драганово",
        "phone_code": "05518",
        "latitude": 43.223,
        "longitude": 25.7468,
        "post_codes": [
          "8114"
        ]
      },
      "32425": {
        "name": "Изворище",
        "type": "с.",
        "town_hall": "Изворище",
        "phone_code": "05518",
        "latitude": 42.6569,
        "longitude": 27.4427,
        "post_codes": [
          "8116"
        ]
      },
      "47202": {
        "name": "Маринка",
        "type": "с.",
        "town_hall": "Маринка",
        "phone_code": "05919",
        "latitude": 42.4015,
        "longitude": 27.482,
        "post_codes": [
          "8154"
        ]
      },
      "48409": {
        "name": "Миролюбово",
        "type": "с.",
        "town_hall": "Миролюбово",
        "phone_code": "05915",
        "latitude": 42.6447,
        "longitude": 27.3643,
        "post_codes": [
          "8521"
        ]
      },
      "61145": {
        "name": "Равнец",
        "type": "с.",
        "town_hall": "Равнец",
        "phone_code": "05517",
        "latitude": 42.5142,
        "longitude": 27.2412,
        "post_codes": [
          "8117"
        ]
      },
      "63183": {
        "name": "Рудник",
        "type": "с.",
        "town_hall": "Рудник",
        "phone_code": "05518",
        "latitude": 42.6264,
        "longitude": 27.4887,
        "post_codes": [
          "8112"
        ]
      },
      "72151": {
        "name": "Твърдица",
        "type": "с.",
        "town_hall": "Твърдица",
        "phone_code": "05919",
        "latitude": 42.7016,
        "longitude": 25.896,
        "post_codes": [
          "8155"
        ]
      },
      "81164": {
        "name": "Черно море",
        "type": "с.",
        "town_hall": "Черно море",
        "phone_code": "",
        "latitude": 42.6153,
        "longitude": 27.4915,
        "post_codes": [
          "8115"
        ]
      }
    },
    "Камено": {
      "11096": {
        "name": "Винарско",
        "type": "с.",
        "town_hall": "Винарско",
        "phone_code": "05589",
        "latitude": 42.6041,
        "longitude": 27.2002,
        "post_codes": [
          "8533"
        ]
      },
      "12245": {
        "name": "Вратица",
        "type": "с.",
        "town_hall": "Камено",
        "phone_code": "05580",
        "latitude": 42.5876,
        "longitude": 27.1609,
        "post_codes": [
          "8109"
        ]
      },
      "29249": {
        "name": "Желязово",
        "type": "с.",
        "town_hall": "Камено",
        "phone_code": "05918",
        "latitude": 42.4801,
        "longitude": 27.1383,
        "post_codes": [
          "8106"
        ]
      },
      "35883": {
        "name": "Камено",
        "type": "гр.",
        "town_hall": "Камено",
        "phone_code": "05515",
        "latitude": 42.5735,
        "longitude": 27.295,
        "post_codes": [
          "8120"
        ]
      },
      "52279": {
        "name": "Константиново",
        "type": "с.",
        "town_hall": "Камено",
        "phone_code": "",
        "latitude": 42.4097,
        "longitude": 27.3152,
        "post_codes": [
          "8129"
        ]
      },
      "40381": {
        "name": "Кръстина",
        "type": "с.",
        "town_hall": "Кръстина",
        "phone_code": "05515",
        "latitude": 42.5845,
        "longitude": 27.2383,
        "post_codes": [
          "8121"
        ]
      },
      "43623": {
        "name": "Ливада",
        "type": "с.",
        "town_hall": "Камено",
        "phone_code": "05918",
        "latitude": 42.4454,
        "longitude": 27.2187,
        "post_codes": [
          "8107"
        ]
      },
      "57337": {
        "name": "Полски извор",
        "type": "с.",
        "town_hall": "Камено",
        "phone_code": "05912",
        "latitude": 42.4496,
        "longitude": 27.29,
        "post_codes": [
          "8123"
        ]
      },
      "63478": {
        "name": "Русокастро",
        "type": "с.",
        "town_hall": "Русокастро",
        "phone_code": "05918",
        "latitude": 42.4655,
        "longitude": 27.1867,
        "post_codes": [
          "8105"
        ]
      },
      "65783": {
        "name": "Свобода",
        "type": "с.",
        "town_hall": "Свобода",
        "phone_code": "05515",
        "latitude": 42.5708,
        "longitude": 27.3179,
        "post_codes": [
          "8103"
        ]
      },
      "73211": {
        "name": "Трояново",
        "type": "с.",
        "town_hall": "Трояново",
        "phone_code": "05580",
        "latitude": 42.5546,
        "longitude": 27.1451,
        "post_codes": [
          "8108"
        ]
      },
      "73388": {
        "name": "Тръстиково",
        "type": "с.",
        "town_hall": "Камено",
        "phone_code": "05912",
        "latitude": 42.4273,
        "longitude": 27.2615,
        "post_codes": [
          "8128"
        ]
      },
      "80916": {
        "name": "Черни връх",
        "type": "с.",
        "town_hall": "Черни връх",
        "phone_code": "05910",
        "latitude": 42.4455,
        "longitude": 27.3435,
        "post_codes": [
          "8122"
        ]
      }
    },
    "Карнобат": {
      "775": {
        "name": "Аспарухово",
        "type": "с.",
        "town_hall": "Карнобат",
        "phone_code": "05529",
        "latitude": 42.5172,
        "longitude": 27.1108,
        "post_codes": [
          "8485"
        ]
      },
      "10625": {
        "name": "Венец",
        "type": "с.",
        "town_hall": "Карнобат",
        "phone_code": "05521",
        "latitude": 42.6401,
        "longitude": 26.8079,
        "post_codes": [
          "8473"
        ]
      },
      "15182": {
        "name": "Глумче",
        "type": "с.",
        "town_hall": "Карнобат",
        "phone_code": "05526",
        "latitude": 42.6988,
        "longitude": 27.025,
        "post_codes": [
          "8429"
        ]
      },
      "20417": {
        "name": "Деветак",
        "type": "с.",
        "town_hall": "Карнобат",
        "phone_code": "05525",
        "latitude": 42.5746,
        "longitude": 26.8239,
        "post_codes": [
          "8480"
        ]
      },
      "20448": {
        "name": "Деветинци",
        "type": "с.",
        "town_hall": "Карнобат",
        "phone_code": "05525",
        "latitude": 42.5958,
        "longitude": 26.8269,
        "post_codes": [
          "8474"
        ]
      },
      "2765": {
        "name": "Детелина",
        "type": "с.",
        "town_hall": "Карнобат",
        "phone_code": "05529",
        "latitude": 42.5592,
        "longitude": 27.0354,
        "post_codes": [
          "8483"
        ]
      },
      "21508": {
        "name": "Добриново",
        "type": "с.",
        "town_hall": "Карнобат",
        "phone_code": "05590",
        "latitude": 42.4754,
        "longitude": 26.9111,
        "post_codes": [
          "8447"
        ]
      },
      "23176": {
        "name": "Драганци",
        "type": "с.",
        "town_hall": "Карнобат",
        "phone_code": "05524",
        "latitude": 42.5668,
        "longitude": 26.9829,
        "post_codes": [
          "8489"
        ]
      },
      "23306": {
        "name": "Драгово",
        "type": "с.",
        "town_hall": "Карнобат",
        "phone_code": "05599",
        "latitude": 42.6295,
        "longitude": 27.107,
        "post_codes": [
          "8437"
        ]
      },
      "27169": {
        "name": "Екзарх Антимово",
        "type": "с.",
        "town_hall": "Екзарх Антимово",
        "phone_code": "05524",
        "latitude": 42.5358,
        "longitude": 26.9756,
        "post_codes": [
          "8490"
        ]
      },
      "29129": {
        "name": "Железник",
        "type": "с.",
        "town_hall": "Карнобат",
        "phone_code": "05525",
        "latitude": 44.7189,
        "longitude": 20.3761,
        "post_codes": [
          "8488"
        ]
      },
      "29492": {
        "name": "Житосвят",
        "type": "с.",
        "town_hall": "Карнобат",
        "phone_code": "05590",
        "latitude": 42.4629,
        "longitude": 26.9747,
        "post_codes": [
          "8475"
        ]
      },
      "30853": {
        "name": "Зимен",
        "type": "с.",
        "town_hall": "Карнобат",
        "phone_code": "05526",
        "latitude": 42.7357,
        "longitude": 27.0364,
        "post_codes": [
          "8428"
        ]
      },
      "32809": {
        "name": "Искра",
        "type": "с.",
        "town_hall": "Искра",
        "phone_code": "05522",
        "latitude": 42.682,
        "longitude": 26.8778,
        "post_codes": [
          "8481"
        ]
      },
      "36525": {
        "name": "Карнобат",
        "type": "гр.",
        "town_hall": "Карнобат",
        "phone_code": "0559",
        "latitude": 42.6511,
        "longitude": 26.9804,
        "post_codes": [
          "8400"
        ]
      },
      "37201": {
        "name": "Кликач",
        "type": "с.",
        "town_hall": "Кликач",
        "phone_code": "05526",
        "latitude": 42.7043,
        "longitude": 27.0591,
        "post_codes": [
          "8427"
        ]
      },
      "37650": {
        "name": "Козаре",
        "type": "с.",
        "town_hall": "Карнобат",
        "phone_code": "05599",
        "latitude": 42.6076,
        "longitude": 27.0472,
        "post_codes": [
          "8493"
        ]
      },
      "40021": {
        "name": "Крумово градище",
        "type": "с.",
        "town_hall": "Крумово градище",
        "phone_code": "05523",
        "latitude": 42.6106,
        "longitude": 26.9288,
        "post_codes": [
          "8487"
        ]
      },
      "40230": {
        "name": "Крушово",
        "type": "с.",
        "town_hall": "Карнобат",
        "phone_code": "05529",
        "latitude": 42.5429,
        "longitude": 27.0578,
        "post_codes": [
          "8482"
        ]
      },
      "49549": {
        "name": "Мъдрино",
        "type": "с.",
        "town_hall": "Карнобат",
        "phone_code": "05528",
        "latitude": 42.7098,
        "longitude": 26.9,
        "post_codes": [
          "8444"
        ]
      },
      "51202": {
        "name": "Невестино",
        "type": "с.",
        "town_hall": "Невестино",
        "phone_code": "05528",
        "latitude": 42.7311,
        "longitude": 26.9426,
        "post_codes": [
          "8431"
        ]
      },
      "62027": {
        "name": "Раклица",
        "type": "с.",
        "town_hall": "Карнобат",
        "phone_code": "05528",
        "latitude": 42.7752,
        "longitude": 27.0069,
        "post_codes": [
          "8439"
        ]
      },
      "65351": {
        "name": "Сан-Стефано",
        "type": "с.",
        "town_hall": "Карнобат",
        "phone_code": "05525",
        "latitude": 40.9776,
        "longitude": 28.8189,
        "post_codes": [
          "8484"
        ]
      },
      "66408": {
        "name": "Сигмен",
        "type": "с.",
        "town_hall": "Карнобат",
        "phone_code": "05528",
        "latitude": 42.71,
        "longitude": 26.9733,
        "post_codes": [
          "8438"
        ]
      },
      "72080": {
        "name": "Смолник",
        "type": "с.",
        "town_hall": "Карнобат",
        "phone_code": "05524",
        "latitude": 42.5298,
        "longitude": 26.9285,
        "post_codes": [
          "8491"
        ]
      },
      "67920": {
        "name": "Соколово",
        "type": "с.",
        "town_hall": "Карнобат",
        "phone_code": "05527",
        "latitude": 42.6602,
        "longitude": 27.0706,
        "post_codes": [
          "8435"
        ]
      },
      "70576": {
        "name": "Сърнево",
        "type": "с.",
        "town_hall": "Карнобат",
        "phone_code": "05520",
        "latitude": 42.476,
        "longitude": 27.0919,
        "post_codes": [
          "8457"
        ]
      },
      "77089": {
        "name": "Хаджиите",
        "type": "с.",
        "town_hall": "Карнобат",
        "phone_code": "05599",
        "latitude": 42.6097,
        "longitude": 27.0799,
        "post_codes": [
          "8492"
        ]
      },
      "78416": {
        "name": "Церковски",
        "type": "с.",
        "town_hall": "Карнобат",
        "phone_code": "05523",
        "latitude": 42.6106,
        "longitude": 26.8742,
        "post_codes": [
          "8472"
        ]
      },
      "80755": {
        "name": "Черково",
        "type": "с.",
        "town_hall": "Карнобат",
        "phone_code": "05520",
        "latitude": 42.4811,
        "longitude": 27.0456,
        "post_codes": [
          "8478"
        ]
      }
    },
    "Малко Търново": {
      "4412": {
        "name": "Близнак",
        "type": "с.",
        "town_hall": "Малко Търново",
        "phone_code": "05959",
        "latitude": 42.1596,
        "longitude": 27.305,
        "post_codes": [
          "8365"
        ]
      },
      "6687": {
        "name": "Бръшлян",
        "type": "с.",
        "town_hall": "Малко Търново",
        "phone_code": "05952",
        "latitude": 42.0464,
        "longitude": 27.4281,
        "post_codes": [
          "8357"
        ]
      },
      "7627": {
        "name": "Бяла вода",
        "type": "с.",
        "town_hall": "Малко Търново",
        "phone_code": "05959",
        "latitude": 42.1655,
        "longitude": 27.4552,
        "post_codes": [
          "8361"
        ]
      },
      "11051": {
        "name": "Визица",
        "type": "с.",
        "town_hall": "Малко Търново",
        "phone_code": "05958",
        "latitude": 42.1239,
        "longitude": 27.6061,
        "post_codes": [
          "8369"
        ]
      },
      "17693": {
        "name": "Граматиково",
        "type": "с.",
        "town_hall": "Граматиково",
        "phone_code": "05958",
        "latitude": 42.0667,
        "longitude": 27.65,
        "post_codes": [
          "8370"
        ]
      },
      "27022": {
        "name": "Евренозово",
        "type": "с.",
        "town_hall": "Звездец",
        "phone_code": "05959",
        "latitude": 42.1325,
        "longitude": 27.3413,
        "post_codes": [
          "8363"
        ]
      },
      "30020": {
        "name": "Заберново",
        "type": "с.",
        "town_hall": "Малко Търново",
        "phone_code": "05958",
        "latitude": 42.102,
        "longitude": 27.5621,
        "post_codes": [
          "8367"
        ]
      },
      "30483": {
        "name": "Звездец",
        "type": "с.",
        "town_hall": "Звездец",
        "phone_code": "05959",
        "latitude": 42.1092,
        "longitude": 27.4172,
        "post_codes": [
          "8360"
        ]
      },
      "35451": {
        "name": "Калово",
        "type": "с.",
        "town_hall": "Малко Търново",
        "phone_code": "05958",
        "latitude": 42.1248,
        "longitude": 27.5343,
        "post_codes": [
          "8368"
        ]
      },
      "46663": {
        "name": "Малко Търново",
        "type": "гр.",
        "town_hall": "Малко Търново",
        "phone_code": "05952",
        "latitude": 41.9798,
        "longitude": 27.525,
        "post_codes": [
          "8350"
        ]
      },
      "48667": {
        "name": "Младежко",
        "type": "с.",
        "town_hall": "Звездец",
        "phone_code": "05959",
        "latitude": 42.1537,
        "longitude": 27.3712,
        "post_codes": [
          "8364"
        ]
      },
      "67307": {
        "name": "Сливарово",
        "type": "с.",
        "town_hall": "Малко Търново",
        "phone_code": "",
        "latitude": 41.9678,
        "longitude": 27.6645,
        "post_codes": [
          "8358"
        ]
      },
      "69328": {
        "name": "Стоилово",
        "type": "с.",
        "town_hall": "Малко Търново",
        "phone_code": "05952",
        "latitude": 42.0387,
        "longitude": 27.5174,
        "post_codes": [
          "8359"
        ]
      }
    },
    "Несебър": {
      "2703": {
        "name": "Баня",
        "type": "с.",
        "town_hall": "Несебър",
        "phone_code": "05506",
        "latitude": 42.7755,
        "longitude": 27.8182,
        "post_codes": [
          "8222"
        ]
      },
      "18469": {
        "name": "Гюльовца",
        "type": "с.",
        "town_hall": "Гюльовца",
        "phone_code": "05503",
        "latitude": 42.7647,
        "longitude": 27.6022,
        "post_codes": [
          "8228"
        ]
      },
      "27454": {
        "name": "Емона",
        "type": "с.",
        "town_hall": "Несебър",
        "phone_code": "05504",
        "latitude": 42.7138,
        "longitude": 27.8845,
        "post_codes": [
          "8223"
        ]
      },
      "37825": {
        "name": "Козница",
        "type": "с.",
        "town_hall": "Несебър",
        "phone_code": "05504",
        "latitude": 42.8756,
        "longitude": 27.682,
        "post_codes": [
          "8255"
        ]
      },
      "39164": {
        "name": "Кошарица",
        "type": "с.",
        "town_hall": "Кошарица",
        "phone_code": "0554",
        "latitude": 42.7521,
        "longitude": 27.6912,
        "post_codes": [
          "8224"
        ]
      },
      "51500": {
        "name": "Несебър",
        "type": "гр.",
        "town_hall": "Несебър",
        "phone_code": "0554",
        "latitude": 42.6601,
        "longitude": 27.7206,
        "post_codes": [
          "8230",
          "8231"
        ]
      },
      "53045": {
        "name": "Обзор",
        "type": "гр.",
        "town_hall": "Обзор",
        "phone_code": "05504",
        "latitude": 42.8175,
        "longitude": 27.88,
        "post_codes": [
          "8250"
        ]
      },
      "53822": {
        "name": "Оризаре",
        "type": "с.",
        "town_hall": "Оризаре",
        "phone_code": "05503",
        "latitude": 42.7509,
        "longitude": 27.6205,
        "post_codes": [
          "8227"
        ]
      },
      "55350": {
        "name": "Паницово",
        "type": "с.",
        "town_hall": "Несебър",
        "phone_code": "05504",
        "latitude": 42.8515,
        "longitude": 27.6633,
        "post_codes": [
          "8254"
        ]
      },
      "58431": {
        "name": "Приселци",
        "type": "с.",
        "town_hall": "Обзор",
        "phone_code": "05504",
        "latitude": 42.824,
        "longitude": 27.7986,
        "post_codes": [
          "8251"
        ]
      },
      "61056": {
        "name": "Равда",
        "type": "с.",
        "town_hall": "Равда",
        "phone_code": "0554",
        "latitude": 42.6443,
        "longitude": 27.6781,
        "post_codes": [
          "8221"
        ]
      },
      "62102": {
        "name": "Раковсково",
        "type": "с.",
        "town_hall": "Обзор",
        "phone_code": "05504",
        "latitude": 42.8347,
        "longitude": 27.7339,
        "post_codes": [
          "8257"
        ]
      },
      "11538": {
        "name": "Свети Влас",
        "type": "с.",
        "town_hall": "Свети Влас",
        "phone_code": "",
        "latitude": 42.7134,
        "longitude": 27.7588,
        "post_codes": [
          "8229"
        ]
      },
      "98212": {
        "name": "Слънчев бряг",
        "type": "к.к.",
        "town_hall": "Несебър",
        "phone_code": "0554",
        "latitude": 42.693056,
        "longitude": 27.708333,
        "post_codes": [
          "8240"
        ]
      },
      "73571": {
        "name": "Тънково",
        "type": "с.",
        "town_hall": "Тънково",
        "phone_code": "0554",
        "latitude": 42.694,
        "longitude": 27.6497,
        "post_codes": [
          "8237"
        ]
      }
    },
    "Поморие": {
      "271": {
        "name": "Александрово",
        "type": "с.",
        "town_hall": "Поморие",
        "phone_code": "05933",
        "latitude": 42.6951,
        "longitude": 27.5972,
        "post_codes": [
          "8211"
        ]
      },
      "833": {
        "name": "Ахелой",
        "type": "с.",
        "town_hall": "Ахелой",
        "phone_code": "05935",
        "latitude": 42.646,
        "longitude": 27.6494,
        "post_codes": [
          "8215"
        ]
      },
      "2810": {
        "name": "Бата",
        "type": "с.",
        "town_hall": "Бата",
        "phone_code": "05930",
        "latitude": 43.9106,
        "longitude": -69.8206,
        "post_codes": [
          "8218"
        ]
      },
      "27440": {
        "name": "Белодол",
        "type": "с.",
        "town_hall": "Поморие",
        "phone_code": "05930",
        "latitude": 42.7214,
        "longitude": 27.4522,
        "post_codes": [
          "8219"
        ]
      },
      "14057": {
        "name": "Габерово",
        "type": "с.",
        "town_hall": "Габерово",
        "phone_code": "05934",
        "latitude": 42.697,
        "longitude": 27.5265,
        "post_codes": [
          "8212"
        ]
      },
      "16064": {
        "name": "Горица",
        "type": "с.",
        "town_hall": "Горица",
        "phone_code": "05937",
        "latitude": 42.791,
        "longitude": 27.5295,
        "post_codes": [
          "8253"
        ]
      },
      "18229": {
        "name": "Гълъбец",
        "type": "с.",
        "town_hall": "Гълъбец",
        "phone_code": "05937",
        "latitude": 42.7709,
        "longitude": 27.5302,
        "post_codes": [
          "8238"
        ]
      },
      "24253": {
        "name": "Дъбник",
        "type": "с.",
        "town_hall": "Дъбник",
        "phone_code": "05934",
        "latitude": 42.6881,
        "longitude": 27.5043,
        "post_codes": [
          "8213"
        ]
      },
      "35033": {
        "name": "Каблешково",
        "type": "гр.",
        "town_hall": "Каблешково",
        "phone_code": "05933",
        "latitude": 42.6584,
        "longitude": 27.5707,
        "post_codes": [
          "8210"
        ]
      },
      "35691": {
        "name": "Каменар",
        "type": "с.",
        "town_hall": "Каменар",
        "phone_code": "05933",
        "latitude": 42.6252,
        "longitude": 27.5727,
        "post_codes": [
          "8215"
        ]
      },
      "37753": {
        "name": "Козичино",
        "type": "с.",
        "town_hall": "Поморие",
        "phone_code": "05937",
        "latitude": 42.838,
        "longitude": 27.5731,
        "post_codes": [
          "8249"
        ]
      },
      "38769": {
        "name": "Косовец",
        "type": "с.",
        "town_hall": "Поморие",
        "phone_code": "05930",
        "latitude": 42.7549,
        "longitude": 27.4382,
        "post_codes": [
          "8248"
        ]
      },
      "44425": {
        "name": "Лъка",
        "type": "с.",
        "town_hall": "Поморие",
        "phone_code": "05933",
        "latitude": 42.6231,
        "longitude": 27.5373,
        "post_codes": [
          "8216"
        ]
      },